{
  "file": "./models/stationsData.json",
  "stationsData": [
    {
      "name": "WAT-001",
      "city": "Waterford",
      "county": "Waterford",
      "latitude": "52.25833",
      "longitude": "-7.11194",
      "id": "eb07ccad-d7a9-4a2b-b332-91c3d78729cb",
      "timestamp_created": "29/07/2025 - 20:29:17",
      "created_by": "877835af-3a73-415a-b51b-27ae8426e599",
      "created_by_name": "Alex Korne",
      "deleted": false,
      "deleted_timestamp": null,
      "deleted_by": null
    },
    {
      "name": "CORK-001",
      "city": "Cork",
      "county": "Cork",
      "latitude": "51.89797",
      "longitude": "-8.47061",
      "id": "b76e0253-86f3-4c7a-b2ac-ac1dd0be9f80",
      "timestamp_created": "29/07/2025 - 20:51:09",
      "created_by": "877835af-3a73-415a-b51b-27ae8426e599",
      "created_by_name": "Alex Korne",
      "deleted": false,
      "deleted_timestamp": null,
      "deleted_by": null
    },
    {
      "name": "GAL-001",
      "city": "Galway",
      "county": "Galway",
      "latitude": "53.35645090",
      "longitude": "-8.85341130",
      "id": "8fd8c21b-8398-4b6c-b160-23b7f95b0c6b",
      "timestamp_created": "03/08/2025 - 18:13:27",
      "created_by": "877835af-3a73-415a-b51b-27ae8426e599",
      "created_by_name": "Alex Korne",
      "deleted": false,
      "deleted_timestamp": null,
      "deleted_by": null
    },
    {
      "name": "ffd",
      "city": "fddfd",
      "county": "dfdf",
      "latitude": "52",
      "longitude": "-7",
      "id": "09bf9e46-cd19-4544-b8fd-fc1faed90d77",
      "timestamp_created": "12/08/2025 - 09:59:16",
      "created_by": "877835af-3a73-415a-b51b-27ae8426e599",
      "created_by_name": "Alex Korne",
      "deleted": true,
      "deleted_timestamp": "12/08/2025 - 10:01:15",
      "deleted_by": "Admin"
    }
  ]
}